{
  "city": "Angers",
  "country": "France",
  "note": "Curated recurring highlights at real Angers venues. Dates are relative to today. Each item links to an official source.",
  "events": [
    {
      "title": "Château d'Angers – Apocalypse Tapestry",
      "category": "culture",
      "venue": "Château d'Angers",
      "latitude": 47.47,
      "longitude": -0.56,
      "is_outdoor": false,
      "day_offset": 0,
      "duration_days": 7,
      "description": "Medieval fortress with the monumental Apocalypse Tapestry.",
      "source_name": "chateauangers.fr",
      "source_url": "https://www.chateauangers.fr/",
      "keyword": "Castle"
    },
    {
      "title": "Terra Botanica – Plant Theme Park",
      "category": "family",
      "venue": "Terra Botanica",
      "latitude": 47.465,
      "longitude": -0.52,
      "is_outdoor": true,
      "day_offset": 3,
      "duration_days": 1,
      "description": "Botanical adventures and rides celebrating the plant world.",
      "source_name": "terrabotanica.fr",
      "source_url": "https://www.terrabotanica.fr/",
      "keyword": "Theme park"
    },
    {
      "title": "Musée des Beaux-Arts",
      "category": "culture",
      "venue": "Musée des Beaux-Arts",
      "latitude": 47.473,
      "longitude": -0.555,
      "is_outdoor": false,
      "day_offset": 2,
      "duration_days": 14,
      "description": "Paintings and decorative arts in a former bishop's palace.",
      "source_name": "museesangers.fr",
      "source_url": "https://www.museesangers.fr/",
      "keyword": "Museum"
    },
    {
      "title": "Collégiale Saint-Martin – Romanesque",
      "category": "culture",
      "venue": "Collégiale Saint-Martin",
      "latitude": 47.4715,
      "longitude": -0.553,
      "is_outdoor": false,
      "day_offset": 1,
      "duration_days": 1,
      "description": "Restored Romanesque collegiate church in the old town.",
      "source_name": "angers.fr",
      "source_url": "https://www.angers.fr/",
      "keyword": "Church"
    },
    {
      "title": "Parc Balzac – Riverside Walk",
      "category": "nature",
      "venue": "Parc Balzac",
      "latitude": 47.468,
      "longitude": -0.545,
      "is_outdoor": true,
      "day_offset": 4,
      "duration_days": 1,
      "description": "Green riverside park along the Maine with play areas.",
      "source_name": "angers.fr",
      "source_url": "https://www.angers.fr/",
      "keyword": "Park"
    },
    {
      "title": "Grand Théâtre – Opera & Dance",
      "category": "culture",
      "venue": "Grand Théâtre",
      "latitude": 47.472,
      "longitude": -0.552,
      "is_outdoor": false,
      "day_offset": 6,
      "duration_days": 1,
      "description": "Opera, theatre and concerts in the city centre.",
      "source_name": "angers.fr",
      "source_url": "https://www.angers.fr/",
      "keyword": "Theatre"
    },
    {
      "title": "Marché de la Doutre – Sunday Market",
      "category": "markets",
      "venue": "La Doutre",
      "latitude": 47.474,
      "longitude": -0.558,
      "is_outdoor": true,
      "day_offset": 5,
      "duration_days": 1,
      "description": "Historic quarter market for local produce and crafts.",
      "source_name": "angers.fr",
      "source_url": "https://www.angers.fr/",
      "keyword": "Market"
    },
    {
      "title": "Anjou Wine Route – Vineyard Visit",
      "category": "food",
      "venue": "Coteaux du Layon",
      "latitude": 47.35,
      "longitude": -0.65,
      "is_outdoor": true,
      "day_offset": 8,
      "duration_days": 1,
      "description": "Sweet Chenin and Cabernet d'Anjou tastings in the Loire vineyards.",
      "source_name": "anjou-vignoble.fr",
      "source_url": "https://www.anjou-vignoble.fr/",
      "keyword": "Wine route"
    },
    {
      "title": "Jean Lurçat Museum – Contemporary Tapestry",
      "category": "culture",
      "venue": "Musée Jean Lurçat",
      "latitude": 47.469,
      "longitude": -0.548,
      "is_outdoor": false,
      "day_offset": 7,
      "duration_days": 7,
      "description": "Modern tapestry art in a former hospital.",
      "source_name": "museesangers.fr",
      "source_url": "https://www.museesangers.fr/",
      "keyword": "Museum"
    }
  ]
}
