{
  "city": "Lille",
  "country": "France",
  "note": "Curated recurring highlights at real Lille venues. Dates are relative to today. Each item links to an official source.",
  "events": [
    {
      "title": "Palais des Beaux-Arts – Major Collection",
      "category": "culture",
      "venue": "Palais des Beaux-Arts",
      "latitude": 50.6306,
      "longitude": 3.0633,
      "is_outdoor": false,
      "day_offset": 2,
      "duration_days": 14,
      "description": "One of France's largest fine arts museums outside Paris.",
      "source_name": "pba-lille.fr",
      "source_url": "https://www.pba-lille.fr/",
      "keyword": "Museum"
    },
    {
      "title": "Grand Place – Central Square",
      "category": "culture",
      "venue": "Grand Place",
      "latitude": 50.6366,
      "longitude": 3.0635,
      "is_outdoor": true,
      "day_offset": 0,
      "duration_days": 1,
      "description": "Baroque Vieille Bourse and lively terraces in the historic centre.",
      "source_name": "lille.fr",
      "source_url": "https://www.lille.fr/",
      "keyword": "Square"
    },
    {
      "title": "Vieille Bourse – Book Market",
      "category": "culture",
      "venue": "Vieille Bourse",
      "latitude": 50.6368,
      "longitude": 3.063,
      "is_outdoor": true,
      "day_offset": 1,
      "duration_days": 1,
      "description": "Renaissance stock exchange courtyard with second-hand book stalls.",
      "source_name": "lille.fr",
      "source_url": "https://www.lille.fr/",
      "keyword": "Historic building"
    },
    {
      "title": "Citadelle – Park & Zoo",
      "category": "family",
      "venue": "Citadelle de Lille",
      "latitude": 50.641,
      "longitude": 3.0445,
      "is_outdoor": true,
      "day_offset": 3,
      "duration_days": 1,
      "description": "Vauban fortress surrounded by parkland and a free zoo.",
      "source_name": "lille.fr",
      "source_url": "https://www.lille.fr/",
      "keyword": "Park"
    },
    {
      "title": "Tripostal – Contemporary Exhibitions",
      "category": "culture",
      "venue": "Tripostal",
      "latitude": 50.634,
      "longitude": 3.058,
      "is_outdoor": false,
      "day_offset": 5,
      "duration_days": 14,
      "description": "Former sorting office hosting rotating art and design shows.",
      "source_name": "lille.fr",
      "source_url": "https://www.lille.fr/",
      "keyword": "Gallery"
    },
    {
      "title": "Braderie de Lille – Giant Flea Market",
      "category": "festival",
      "venue": "Centre-ville",
      "latitude": 50.6292,
      "longitude": 3.0573,
      "is_outdoor": true,
      "day_offset": 14,
      "duration_days": 2,
      "description": "Europe's largest flea market — first weekend of September tradition.",
      "source_name": "lille.fr",
      "source_url": "https://www.lille.fr/",
      "keyword": "Flea market"
    },
    {
      "title": "Zénith de Lille – Big Concerts",
      "category": "music",
      "venue": "Zénith de Lille",
      "latitude": 50.616,
      "longitude": 3.075,
      "is_outdoor": false,
      "day_offset": 7,
      "duration_days": 1,
      "description": "Major touring acts in the Arena district.",
      "source_name": "zenithdelille.com",
      "source_url": "https://www.zenithdelille.com/",
      "keyword": "Concert"
    },
    {
      "title": "Marché de Wazemmes – Sunday Market",
      "category": "markets",
      "venue": "Marché de Wazemmes",
      "latitude": 50.625,
      "longitude": 3.05,
      "is_outdoor": true,
      "day_offset": 4,
      "duration_days": 1,
      "description": "Multicultural market for produce, fabrics and street food.",
      "source_name": "lille.fr",
      "source_url": "https://www.lille.fr/",
      "keyword": "Market"
    },
    {
      "title": "Hospice Comtesse Museum",
      "category": "culture",
      "venue": "Musée de l'Hospice Comtesse",
      "latitude": 50.6415,
      "longitude": 3.064,
      "is_outdoor": false,
      "day_offset": 6,
      "duration_days": 7,
      "description": "Medieval hospital museum with Flemish interiors and gardens.",
      "source_name": "mairie-lille.fr",
      "source_url": "https://www.mairie-lille.fr/",
      "keyword": "Museum"
    }
  ]
}
